{"businesses": [{"id": "K2dtWI7EAomBHcui4ZoqcA", "alias": "drunken-monk-menlo-park", "name": "Drunken Monk", "image_url": "https://s3-media2.fl.yelpcdn.com/bphoto/lbRKukB38HhVPAfctZFHSA/o.jpg", "is_closed": false, "url": "https://www.yelp.com/biz/drunken-monk-menlo-park?adjust_creative=UHCfh0B0pHj-28_g0v44Hw&utm_campaign=yelp_api_v3&utm_medium=api_v3_business_search&utm_source=UHCfh0B0pHj-28_g0v44Hw", "review_count": 90, "categories": [{"alias": "izakaya", "title": "Izakaya"}, {"alias": "sushi", "title": "Sushi Bars"}], "rating": 4.1, "coordinates": {"latitude": 37.456548, "longitude": -122.188364}, "transactions": ["restaurant_reservation"], "location": {"address1": "1438 El Camino Real", "address2": null, "address3": "", "city": "Menlo Park", "zip_code": "94025", "country": "US", "state": "CA", "display_address": ["1438 El Camino Real", "Menlo Park, CA 94025"]}, "phone": "+16503846668", "display_phone": "(650) 384-6668", "distance": 3414.6031716637945}, {"id": "Eai4a2zjEm0xHKJTN--LpA", "alias": "sand-hill-kitchen-menlo-park-2", "name": "Sand Hill Kitchen", "image_url": "https://s3-media1.fl.yelpcdn.com/bphoto/9SLcHmUkb9toGBW8rx7jVA/o.jpg", "is_closed": false, "url": "https://www.yelp.com/biz/sand-hill-kitchen-menlo-park-2?adjust_creative=UHCfh0B0pHj-28_g0v44Hw&utm_campaign=yelp_api_v3&utm_medium=api_v3_business_search&utm_source=UHCfh0B0pHj-28_g0v44Hw", "review_count": 51, "categories": [{"alias": "newamerican", "title": "New American"}, {"alias": "breakfast_brunch", "title": "Breakfast & Brunch"}], "rating": 4.8, "coordinates": {"latitude": 37.42335, "longitude": -122.20322}, "transactions": [], "location": {"address1": "2400 Sand Hill Rd", "address2": "Ste 203", "address3": "", "city": "Menlo Park", "zip_code": "94025", "country": "US", "state": "CA", "display_address": ["2400 Sand Hill Rd", "Ste 203", "Menlo Park, CA 94025"]}, "phone": "+16503043966", "display_phone": "(650) 304-3966", "distance": 2609.488152366555}, {"id": "pLqiFFz1JScp8wMMyXcx-w", "alias": "ter\u00fan-palo-alto-3", "name": "Ter\u00fan", "image_url": "https://s3-media4.fl.yelpcdn.com/bphoto/QX2xDWZc94bBzPeXkuh6Aw/o.jpg", "is_closed": false, "url": "https://www.yelp.com/biz/ter%C3%BAn-palo-alto-3?adjust_creative=UHCfh0B0pHj-28_g0v44Hw&utm_campaign=yelp_api_v3&utm_medium=api_v3_business_search&utm_source=UHCfh0B0pHj-28_g0v44Hw", "review_count": 2051, "categories": [{"alias": "pizza", "title": "Pizza"}, {"alias": "italian", "title": "Italian"}, {"alias": "bars", "title": "Bars"}], "rating": 4.1, "coordinates": {"latitude": 37.425993, "longitude": -122.145453}, "transactions": ["pickup", "delivery"], "price": "$$", "location": {"address1": "448 S California Ave", "address2": "", "address3": "", "city": "Palo Alto", "zip_code": "94306", "country": "US", "state": "CA", "display_address": ["448 S California Ave", "Palo Alto, CA 94306"]}, "phone": "+16506008310", "display_phone": "(650) 600-8310", "distance": 2557.6917562567833}, {"id": "iKJ8LTC61-QsLTLi1Cte1w", "alias": "farmhouse-kitchen-thai-cuisine-menlo-park-2", "name": "Farmhouse Kitchen Thai Cuisine", "image_url": "https://s3-media1.fl.yelpcdn.com/bphoto/uDVC4sftSUOCy5hVLxsYjw/o.jpg", "is_closed": false, "url": "https://www.yelp.com/biz/farmhouse-kitchen-thai-cuisine-menlo-park-2?adjust_creative=UHCfh0B0pHj-28_g0v44Hw&utm_campaign=yelp_api_v3&utm_medium=api_v3_business_search&utm_source=UHCfh0B0pHj-28_g0v44Hw", "review_count": 1214, "categories": [{"alias": "thai", "title": "Thai"}, {"alias": "cocktailbars", "title": "Cocktail Bars"}, {"alias": "noodles", "title": "Noodles"}], "rating": 3.9, "coordinates": {"latitude": 37.45491677842326, "longitude": -122.1834215411082}, "transactions": ["restaurant_reservation"], "price": "$$", "location": {"address1": "1165 Merrill St", "address2": "", "address3": null, "city": "Menlo Park", "zip_code": "94025", "country": "US", "state": "CA", "display_address": ["1165 Merrill St", "Menlo Park, CA 94025"]}, "phone": "+16506657935", "display_phone": "(650) 665-7935", "distance": 3106.655215161812}, {"id": "1vMgajRAI3lYwuCeGX58oQ", "alias": "evvia-estiatorio-palo-alto", "name": "Evvia Estiatorio", "image_url": "https://s3-media3.fl.yelpcdn.com/bphoto/Z94IuBytiG1nF7L5xnBm9Q/o.jpg", "is_closed": false, "url": "https://www.yelp.com/biz/evvia-estiatorio-palo-alto?adjust_creative=UHCfh0B0pHj-28_g0v44Hw&utm_campaign=yelp_api_v3&utm_medium=api_v3_business_search&utm_source=UHCfh0B0pHj-28_g0v44Hw", "review_count": 2927, "categories": [{"alias": "greek", "title": "Greek"}], "rating": 4.3, "coordinates": {"latitude": 37.445077, "longitude": -122.163778}, "transactions": ["pickup", "delivery"], "price": "$$$", "location": {"address1": "420 Emerson St", "address2": "", "address3": "", "city": "Palo Alto", "zip_code": "94301", "country": "US", "state": "CA", "display_address": ["420 Emerson St", "Palo Alto, CA 94301"]}, "phone": "+16503260983", "display_phone": "(650) 326-0983", "distance": 2117.8858294169345}, {"id": "oRsoXNgTAG8p3n-iiR7BLQ", "alias": "sekoya-palo-alto", "name": "Sekoya", "image_url": "https://s3-media4.fl.yelpcdn.com/bphoto/nskrI5HvIh-V4WGUQ9RBaw/o.jpg", "is_closed": false, "url": "https://www.yelp.com/biz/sekoya-palo-alto?adjust_creative=UHCfh0B0pHj-28_g0v44Hw&utm_campaign=yelp_api_v3&utm_medium=api_v3_business_search&utm_source=UHCfh0B0pHj-28_g0v44Hw", "review_count": 67, "categories": [{"alias": "cocktailbars", "title": "Cocktail Bars"}, {"alias": "newamerican", "title": "New American"}, {"alias": "wine_bars", "title": "Wine Bars"}], "rating": 4.3, "coordinates": {"latitude": 37.426179, "longitude": -122.144651}, "transactions": [], "location": {"address1": "417 California Ave", "address2": "", "address3": null, "city": "Palo Alto", "zip_code": "94306", "country": "US", "state": "CA", "display_address": ["417 California Ave", "Palo Alto, CA 94306"]}, "phone": "+16503132413", "display_phone": "(650) 313-2413", "distance": 2628.3061107402104}, {"id": "dnbAcJm6GImR6fcVcw_Eig", "alias": "pho-ha-noi-palo-alto-2", "name": "Pho Ha Noi", "image_url": "https://s3-media2.fl.yelpcdn.com/bphoto/AcxW-RiTasUj--Q1kz_kNg/o.jpg", "is_closed": false, "url": "https://www.yelp.com/biz/pho-ha-noi-palo-alto-2?adjust_creative=UHCfh0B0pHj-28_g0v44Hw&utm_campaign=yelp_api_v3&utm_medium=api_v3_business_search&utm_source=UHCfh0B0pHj-28_g0v44Hw", "review_count": 345, "categories": [{"alias": "vietnamese", "title": "Vietnamese"}], "rating": 3.8, "coordinates": {"latitude": 37.444728, "longitude": -122.163159}, "transactions": [], "price": "$$", "location": {"address1": "185 University Ave", "address2": null, "address3": "", "city": "Palo Alto", "zip_code": "94301", "country": "US", "state": "CA", "display_address": ["185 University Ave", "Palo Alto, CA 94301"]}, "phone": "+16505613240", "display_phone": "(650) 561-3240", "distance": 2112.1709380153125}, {"id": "lj_i7YQw7MPgLkuseruWdQ", "alias": "telef\u00e8ric-barcelona-palo-alto-palo-alto", "name": "Telef\u00e8ric Barcelona -Palo Alto", "image_url": "https://s3-media2.fl.yelpcdn.com/bphoto/XLjXBDfDCzUqsQ_29S5aKQ/o.jpg", "is_closed": false, "url": "https://www.yelp.com/biz/telef%C3%A8ric-barcelona-palo-alto-palo-alto?adjust_creative=UHCfh0B0pHj-28_g0v44Hw&utm_campaign=yelp_api_v3&utm_medium=api_v3_business_search&utm_source=UHCfh0B0pHj-28_g0v44Hw", "review_count": 1710, "categories": [{"alias": "spanish", "title": "Spanish"}, {"alias": "tapas", "title": "Tapas Bars"}, {"alias": "cocktailbars", "title": "Cocktail Bars"}], "rating": 4.2, "coordinates": {"latitude": 37.4383, "longitude": -122.158361}, "transactions": ["pickup", "delivery"], "price": "$$$", "location": {"address1": "855 El Camino Real", "address2": "Ste 130", "address3": "", "city": "Palo Alto", "zip_code": "94301", "country": "US", "state": "CA", "display_address": ["855 El Camino Real", "Ste 130", "Palo Alto, CA 94301"]}, "phone": "+16503210512", "display_phone": "(650) 321-0512", "distance": 1820.4587118489665}, {"id": "NX8VYnWFQ2ZY-H0HwvfPTw", "alias": "wildseed-palo-alto-3", "name": "Wildseed", "image_url": "https://s3-media2.fl.yelpcdn.com/bphoto/JJntGR0jC39l_1oY-EqKRw/o.jpg", "is_closed": false, "url": "https://www.yelp.com/biz/wildseed-palo-alto-3?adjust_creative=UHCfh0B0pHj-28_g0v44Hw&utm_campaign=yelp_api_v3&utm_medium=api_v3_business_search&utm_source=UHCfh0B0pHj-28_g0v44Hw", "review_count": 774, "categories": [{"alias": "vegetarian", "title": "Vegetarian"}, {"alias": "vegan", "title": "Vegan"}, {"alias": "cocktailbars", "title": "Cocktail Bars"}], "rating": 4.4, "coordinates": {"latitude": 37.438529, "longitude": -122.158627}, "transactions": ["restaurant_reservation"], "location": {"address1": "855 El Camino Real Building 4 S", "address2": "Bldg 4 South", "address3": null, "city": "Palo Alto", "zip_code": "94301", "country": "US", "state": "CA", "display_address": ["855 El Camino Real Building 4 S", "Bldg 4 South", "Palo Alto, CA 94301"]}, "phone": "+14087810112", "display_phone": "(408) 781-0112", "distance": 1839.9228855048423}, {"id": "WFRgcUGX3aNpzLvUwOz9wg", "alias": "meyhouse-palo-alto-palo-alto-2", "name": "Meyhouse -Palo Alto", "image_url": "https://s3-media3.fl.yelpcdn.com/bphoto/9W5bE2Hzc95KxymB6rJ7jA/o.jpg", "is_closed": false, "url": "https://www.yelp.com/biz/meyhouse-palo-alto-palo-alto-2?adjust_creative=UHCfh0B0pHj-28_g0v44Hw&utm_campaign=yelp_api_v3&utm_medium=api_v3_business_search&utm_source=UHCfh0B0pHj-28_g0v44Hw", "review_count": 86, "categories": [{"alias": "turkish", "title": "Turkish"}, {"alias": "mediterranean", "title": "Mediterranean"}, {"alias": "mideastern", "title": "Middle Eastern"}], "rating": 4.5, "coordinates": {"latitude": 37.44331264797797, "longitude": -122.1609897}, "transactions": [], "price": "$$$", "location": {"address1": "640 Emerson St", "address2": "", "address3": null, "city": "Palo Alto", "zip_code": "94301", "country": "US", "state": "CA", "display_address": ["640 Emerson St", "Palo Alto, CA 94301"]}, "phone": "+16505210935", "display_phone": "(650) 521-0935", "distance": 2076.0687926085407}], "total": 1000, "region": {"center": {"longitude": -122.1743151, "latitude": 37.4279297}}}{"businesses": [{"id": "K2dtWI7EAomBHcui4ZoqcA", "alias": "drunken-monk-menlo-park", "name": "Drunken Monk", "image_url": "https://s3-media2.fl.yelpcdn.com/bphoto/lbRKukB38HhVPAfctZFHSA/o.jpg", "is_closed": false, "url": "https://www.yelp.com/biz/drunken-monk-menlo-park?adjust_creative=UHCfh0B0pHj-28_g0v44Hw&utm_campaign=yelp_api_v3&utm_medium=api_v3_business_search&utm_source=UHCfh0B0pHj-28_g0v44Hw", "review_count": 90, "categories": [{"alias": "izakaya", "title": "Izakaya"}, {"alias": "sushi", "title": "Sushi Bars"}], "rating": 4.1, "coordinates": {"latitude": 37.456548, "longitude": -122.188364}, "transactions": ["restaurant_reservation"], "location": {"address1": "1438 El Camino Real", "address2": null, "address3": "", "city": "Menlo Park", "zip_code": "94025", "country": "US", "state": "CA", "display_address": ["1438 El Camino Real", "Menlo Park, CA 94025"]}, "phone": "+16503846668", "display_phone": "(650) 384-6668", "distance": 3415.2044732228464}, {"id": "Eai4a2zjEm0xHKJTN--LpA", "alias": "sand-hill-kitchen-menlo-park-2", "name": "Sand Hill Kitchen", "image_url": "https://s3-media1.fl.yelpcdn.com/bphoto/9SLcHmUkb9toGBW8rx7jVA/o.jpg", "is_closed": false, "url": "https://www.yelp.com/biz/sand-hill-kitchen-menlo-park-2?adjust_creative=UHCfh0B0pHj-28_g0v44Hw&utm_campaign=yelp_api_v3&utm_medium=api_v3_business_search&utm_source=UHCfh0B0pHj-28_g0v44Hw", "review_count": 51, "categories": [{"alias": "newamerican", "title": "New American"}, {"alias": "breakfast_brunch", "title": "Breakfast & Brunch"}], "rating": 4.8, "coordinates": {"latitude": 37.42335, "longitude": -122.20322}, "transactions": [], "location": {"address1": "2400 Sand Hill Rd", "address2": "Ste 203", "address3": "", "city": "Menlo Park", "zip_code": "94025", "country": "US", "state": "CA", "display_address": ["2400 Sand Hill Rd", "Ste 203", "Menlo Park, CA 94025"]}, "phone": "+16503043966", "display_phone": "(650) 304-3966", "distance": 2610.5379084475803}, {"id": "pLqiFFz1JScp8wMMyXcx-w", "alias": "ter\u00fan-palo-alto-3", "name": "Ter\u00fan", "image_url": "https://s3-media4.fl.yelpcdn.com/bphoto/QX2xDWZc94bBzPeXkuh6Aw/o.jpg", "is_closed": false, "url": "https://www.yelp.com/biz/ter%C3%BAn-palo-alto-3?adjust_creative=UHCfh0B0pHj-28_g0v44Hw&utm_campaign=yelp_api_v3&utm_medium=api_v3_business_search&utm_source=UHCfh0B0pHj-28_g0v44Hw", "review_count": 2051, "categories": [{"alias": "pizza", "title": "Pizza"}, {"alias": "italian", "title": "Italian"}, {"alias": "bars", "title": "Bars"}], "rating": 4.1, "coordinates": {"latitude": 37.425993, "longitude": -122.145453}, "transactions": ["pickup", "delivery"], "price": "$$", "location": {"address1": "448 S California Ave", "address2": "", "address3": "", "city": "Palo Alto", "zip_code": "94306", "country": "US", "state": "CA", "display_address": ["448 S California Ave", "Palo Alto, CA 94306"]}, "phone": "+16506008310", "display_phone": "(650) 600-8310", "distance": 2556.5653359201924}, {"id": "iKJ8LTC61-QsLTLi1Cte1w", "alias": "farmhouse-kitchen-thai-cuisine-menlo-park-2", "name": "Farmhouse Kitchen Thai Cuisine", "image_url": "https://s3-media1.fl.yelpcdn.com/bphoto/uDVC4sftSUOCy5hVLxsYjw/o.jpg", "is_closed": false, "url": "https://www.yelp.com/biz/farmhouse-kitchen-thai-cuisine-menlo-park-2?adjust_creative=UHCfh0B0pHj-28_g0v44Hw&utm_campaign=yelp_api_v3&utm_medium=api_v3_business_search&utm_source=UHCfh0B0pHj-28_g0v44Hw", "review_count": 1214, "categories": [{"alias": "thai", "title": "Thai"}, {"alias": "cocktailbars", "title": "Cocktail Bars"}, {"alias": "noodles", "title": "Noodles"}], "rating": 3.9, "coordinates": {"latitude": 37.45491677842326, "longitude": -122.1834215411082}, "transactions": ["restaurant_reservation"], "price": "$$", "location": {"address1": "1165 Merrill St", "address2": "", "address3": null, "city": "Menlo Park", "zip_code": "94025", "country": "US", "state": "CA", "display_address": ["1165 Merrill St", "Menlo Park, CA 94025"]}, "phone": "+16506657935", "display_phone": "(650) 665-7935", "distance": 3107.1473365247434}, {"id": "1vMgajRAI3lYwuCeGX58oQ", "alias": "evvia-estiatorio-palo-alto", "name": "Evvia Estiatorio", "image_url": "https://s3-media3.fl.yelpcdn.com/bphoto/Z94IuBytiG1nF7L5xnBm9Q/o.jpg", "is_closed": false, "url": "https://www.yelp.com/biz/evvia-estiatorio-palo-alto?adjust_creative=UHCfh0B0pHj-28_g0v44Hw&utm_campaign=yelp_api_v3&utm_medium=api_v3_business_search&utm_source=UHCfh0B0pHj-28_g0v44Hw", "review_count": 2927, "categories": [{"alias": "greek", "title": "Greek"}], "rating": 4.3, "coordinates": {"latitude": 37.445077, "longitude": -122.163778}, "transactions": ["pickup", "delivery"], "price": "$$$", "location": {"address1": "420 Emerson St", "address2": "", "address3": "", "city": "Palo Alto", "zip_code": "94301", "country": "US", "state": "CA", "display_address": ["420 Emerson St", "Palo Alto, CA 94301"]}, "phone": "+16503260983", "display_phone": "(650) 326-0983", "distance": 2117.5897698509134}, {"id": "oRsoXNgTAG8p3n-iiR7BLQ", "alias": "sekoya-palo-alto", "name": "Sekoya", "image_url": "https://s3-media4.fl.yelpcdn.com/bphoto/nskrI5HvIh-V4WGUQ9RBaw/o.jpg", "is_closed": false, "url": "https://www.yelp.com/biz/sekoya-palo-alto?adjust_creative=UHCfh0B0pHj-28_g0v44Hw&utm_campaign=yelp_api_v3&utm_medium=api_v3_business_search&utm_source=UHCfh0B0pHj-28_g0v44Hw", "review_count": 67, "categories": [{"alias": "cocktailbars", "title": "Cocktail Bars"}, {"alias": "newamerican", "title": "New American"}, {"alias": "wine_bars", "title": "Wine Bars"}], "rating": 4.3, "coordinates": {"latitude": 37.426179, "longitude": -122.144651}, "transactions": [], "location": {"address1": "417 California Ave", "address2": "", "address3": null, "city": "Palo Alto", "zip_code": "94306", "country": "US", "state": "CA", "display_address": ["417 California Ave", "Palo Alto, CA 94306"]}, "phone": "+16503132413", "display_phone": "(650) 313-2413", "distance": 2627.180862666405}, {"id": "dnbAcJm6GImR6fcVcw_Eig", "alias": "pho-ha-noi-palo-alto-2", "name": "Pho Ha Noi", "image_url": "https://s3-media2.fl.yelpcdn.com/bphoto/AcxW-RiTasUj--Q1kz_kNg/o.jpg", "is_closed": false, "url": "https://www.yelp.com/biz/pho-ha-noi-palo-alto-2?adjust_creative=UHCfh0B0pHj-28_g0v44Hw&utm_campaign=yelp_api_v3&utm_medium=api_v3_business_search&utm_source=UHCfh0B0pHj-28_g0v44Hw", "review_count": 345, "categories": [{"alias": "vietnamese", "title": "Vietnamese"}], "rating": 3.8, "coordinates": {"latitude": 37.444728, "longitude": -122.163159}, "transactions": [], "price": "$$", "location": {"address1": "185 University Ave", "address2": null, "address3": "", "city": "Palo Alto", "zip_code": "94301", "country": "US", "state": "CA", "display_address": ["185 University Ave", "Palo Alto, CA 94301"]}, "phone": "+16505613240", "display_phone": "(650) 561-3240", "distance": 2111.8383801973814}, {"id": "lj_i7YQw7MPgLkuseruWdQ", "alias": "telef\u00e8ric-barcelona-palo-alto-palo-alto", "name": "Telef\u00e8ric Barcelona -Palo Alto", "image_url": "https://s3-media2.fl.yelpcdn.com/bphoto/XLjXBDfDCzUqsQ_29S5aKQ/o.jpg", "is_closed": false, "url": "https://www.yelp.com/biz/telef%C3%A8ric-barcelona-palo-alto-palo-alto?adjust_creative=UHCfh0B0pHj-28_g0v44Hw&utm_campaign=yelp_api_v3&utm_medium=api_v3_business_search&utm_source=UHCfh0B0pHj-28_g0v44Hw", "review_count": 1710, "categories": [{"alias": "spanish", "title": "Spanish"}, {"alias": "tapas", "title": "Tapas Bars"}, {"alias": "cocktailbars", "title": "Cocktail Bars"}], "rating": 4.2, "coordinates": {"latitude": 37.4383, "longitude": -122.158361}, "transactions": ["pickup", "delivery"], "price": "$$$", "location": {"address1": "855 El Camino Real", "address2": "Ste 130", "address3": "", "city": "Palo Alto", "zip_code": "94301", "country": "US", "state": "CA", "display_address": ["855 El Camino Real", "Ste 130", "Palo Alto, CA 94301"]}, "phone": "+16503210512", "display_phone": "(650) 321-0512", "distance": 1819.7318788815119}, {"id": "NX8VYnWFQ2ZY-H0HwvfPTw", "alias": "wildseed-palo-alto-3", "name": "Wildseed", "image_url": "https://s3-media2.fl.yelpcdn.com/bphoto/JJntGR0jC39l_1oY-EqKRw/o.jpg", "is_closed": false, "url": "https://www.yelp.com/biz/wildseed-palo-alto-3?adjust_creative=UHCfh0B0pHj-28_g0v44Hw&utm_campaign=yelp_api_v3&utm_medium=api_v3_business_search&utm_source=UHCfh0B0pHj-28_g0v44Hw", "review_count": 774, "categories": [{"alias": "vegetarian", "title": "Vegetarian"}, {"alias": "vegan", "title": "Vegan"}, {"alias": "cocktailbars", "title": "Cocktail Bars"}], "rating": 4.4, "coordinates": {"latitude": 37.438529, "longitude": -122.158627}, "transactions": ["restaurant_reservation"], "location": {"address1": "855 El Camino Real Building 4 S", "address2": "Bldg 4 South", "address3": null, "city": "Palo Alto", "zip_code": "94301", "country": "US", "state": "CA", "display_address": ["855 El Camino Real Building 4 S", "Bldg 4 South", "Palo Alto, CA 94301"]}, "phone": "+14087810112", "display_phone": "(408) 781-0112", "distance": 1839.2371507635662}, {"id": "WFRgcUGX3aNpzLvUwOz9wg", "alias": "meyhouse-palo-alto-palo-alto-2", "name": "Meyhouse -Palo Alto", "image_url": "https://s3-media3.fl.yelpcdn.com/bphoto/9W5bE2Hzc95KxymB6rJ7jA/o.jpg", "is_closed": false, "url": "https://www.yelp.com/biz/meyhouse-palo-alto-palo-alto-2?adjust_creative=UHCfh0B0pHj-28_g0v44Hw&utm_campaign=yelp_api_v3&utm_medium=api_v3_business_search&utm_source=UHCfh0B0pHj-28_g0v44Hw", "review_count": 86, "categories": [{"alias": "turkish", "title": "Turkish"}, {"alias": "mediterranean", "title": "Mediterranean"}, {"alias": "mideastern", "title": "Middle Eastern"}], "rating": 4.5, "coordinates": {"latitude": 37.44331264797797, "longitude": -122.1609897}, "transactions": [], "price": "$$$", "location": {"address1": "640 Emerson St", "address2": "", "address3": null, "city": "Palo Alto", "zip_code": "94301", "country": "US", "state": "CA", "display_address": ["640 Emerson St", "Palo Alto, CA 94301"]}, "phone": "+16505210935", "display_phone": "(650) 521-0935", "distance": 2075.612665720084}], "total": 1000, "region": {"center": {"longitude": -122.1743025, "latitude": 37.4279278}}}{"businesses": [{"id": "K2dtWI7EAomBHcui4ZoqcA", "alias": "drunken-monk-menlo-park", "name": "Drunken Monk", "image_url": "https://s3-media2.fl.yelpcdn.com/bphoto/lbRKukB38HhVPAfctZFHSA/o.jpg", "is_closed": false, "url": "https://www.yelp.com/biz/drunken-monk-menlo-park?adjust_creative=UHCfh0B0pHj-28_g0v44Hw&utm_campaign=yelp_api_v3&utm_medium=api_v3_business_search&utm_source=UHCfh0B0pHj-28_g0v44Hw", "review_count": 90, "categories": [{"alias": "izakaya", "title": "Izakaya"}, {"alias": "sushi", "title": "Sushi Bars"}], "rating": 4.1, "coordinates": {"latitude": 37.456548, "longitude": -122.188364}, "transactions": ["restaurant_reservation"], "location": {"address1": "1438 El Camino Real", "address2": null, "address3": "", "city": "Menlo Park", "zip_code": "94025", "country": "US", "state": "CA", "display_address": ["1438 El Camino Real", "Menlo Park, CA 94025"]}, "phone": "+16503846668", "display_phone": "(650) 384-6668", "distance": 3415.9039030443764}, {"id": "pLqiFFz1JScp8wMMyXcx-w", "alias": "ter\u00fan-palo-alto-3", "name": "Ter\u00fan", "image_url": "https://s3-media4.fl.yelpcdn.com/bphoto/QX2xDWZc94bBzPeXkuh6Aw/o.jpg", "is_closed": false, "url": "https://www.yelp.com/biz/ter%C3%BAn-palo-alto-3?adjust_creative=UHCfh0B0pHj-28_g0v44Hw&utm_campaign=yelp_api_v3&utm_medium=api_v3_business_search&utm_source=UHCfh0B0pHj-28_g0v44Hw", "review_count": 2051, "categories": [{"alias": "pizza", "title": "Pizza"}, {"alias": "italian", "title": "Italian"}, {"alias": "bars", "title": "Bars"}], "rating": 4.1, "coordinates": {"latitude": 37.425993, "longitude": -122.145453}, "transactions": ["pickup", "delivery"], "price": "$$", "location": {"address1": "448 S California Ave", "address2": "", "address3": "", "city": "Palo Alto", "zip_code": "94306", "country": "US", "state": "CA", "display_address": ["448 S California Ave", "Palo Alto, CA 94306"]}, "phone": "+16506008310", "display_phone": "(650) 600-8310", "distance": 2555.472650284943}, {"id": "Eai4a2zjEm0xHKJTN--LpA", "alias": "sand-hill-kitchen-menlo-park-2", "name": "Sand Hill Kitchen", "image_url": "https://s3-media1.fl.yelpcdn.com/bphoto/9SLcHmUkb9toGBW8rx7jVA/o.jpg", "is_closed": false, "url": "https://www.yelp.com/biz/sand-hill-kitchen-menlo-park-2?adjust_creative=UHCfh0B0pHj-28_g0v44Hw&utm_campaign=yelp_api_v3&utm_medium=api_v3_business_search&utm_source=UHCfh0B0pHj-28_g0v44Hw", "review_count": 51, "categories": [{"alias": "newamerican", "title": "New American"}, {"alias": "breakfast_brunch", "title": "Breakfast & Brunch"}], "rating": 4.8, "coordinates": {"latitude": 37.42335, "longitude": -122.20322}, "transactions": [], "location": {"address1": "2400 Sand Hill Rd", "address2": "Ste 203", "address3": "", "city": "Menlo Park", "zip_code": "94025", "country": "US", "state": "CA", "display_address": ["2400 Sand Hill Rd", "Ste 203", "Menlo Park, CA 94025"]}, "phone": "+16503043966", "display_phone": "(650) 304-3966", "distance": 2611.5205322996644}, {"id": "oRsoXNgTAG8p3n-iiR7BLQ", "alias": "sekoya-palo-alto", "name": "Sekoya", "image_url": "https://s3-media4.fl.yelpcdn.com/bphoto/nskrI5HvIh-V4WGUQ9RBaw/o.jpg", "is_closed": false, "url": "https://www.yelp.com/biz/sekoya-palo-alto?adjust_creative=UHCfh0B0pHj-28_g0v44Hw&utm_campaign=yelp_api_v3&utm_medium=api_v3_business_search&utm_source=UHCfh0B0pHj-28_g0v44Hw", "review_count": 67, "categories": [{"alias": "cocktailbars", "title": "Cocktail Bars"}, {"alias": "newamerican", "title": "New American"}, {"alias": "wine_bars", "title": "Wine Bars"}], "rating": 4.3, "coordinates": {"latitude": 37.426179, "longitude": -122.144651}, "transactions": [], "location": {"address1": "417 California Ave", "address2": "", "address3": null, "city": "Palo Alto", "zip_code": "94306", "country": "US", "state": "CA", "display_address": ["417 California Ave", "Palo Alto, CA 94306"]}, "phone": "+16503132413", "display_phone": "(650) 313-2413", "distance": 2626.0905515353234}, {"id": "iKJ8LTC61-QsLTLi1Cte1w", "alias": "farmhouse-kitchen-thai-cuisine-menlo-park-2", "name": "Farmhouse Kitchen Thai Cuisine", "image_url": "https://s3-media1.fl.yelpcdn.com/bphoto/uDVC4sftSUOCy5hVLxsYjw/o.jpg", "is_closed": false, "url": "https://www.yelp.com/biz/farmhouse-kitchen-thai-cuisine-menlo-park-2?adjust_creative=UHCfh0B0pHj-28_g0v44Hw&utm_campaign=yelp_api_v3&utm_medium=api_v3_business_search&utm_source=UHCfh0B0pHj-28_g0v44Hw", "review_count": 1214, "categories": [{"alias": "thai", "title": "Thai"}, {"alias": "cocktailbars", "title": "Cocktail Bars"}, {"alias": "noodles", "title": "Noodles"}], "rating": 3.9, "coordinates": {"latitude": 37.45491677842326, "longitude": -122.1834215411082}, "transactions": ["restaurant_reservation"], "price": "$$", "location": {"address1": "1165 Merrill St", "address2": "", "address3": null, "city": "Menlo Park", "zip_code": "94025", "country": "US", "state": "CA", "display_address": ["1165 Merrill St", "Menlo Park, CA 94025"]}, "phone": "+16506657935", "display_phone": "(650) 665-7935", "distance": 3107.7464699056677}, {"id": "NX8VYnWFQ2ZY-H0HwvfPTw", "alias": "wildseed-palo-alto-3", "name": "Wildseed", "image_url": "https://s3-media2.fl.yelpcdn.com/bphoto/JJntGR0jC39l_1oY-EqKRw/o.jpg", "is_closed": false, "url": "https://www.yelp.com/biz/wildseed-palo-alto-3?adjust_creative=UHCfh0B0pHj-28_g0v44Hw&utm_campaign=yelp_api_v3&utm_medium=api_v3_business_search&utm_source=UHCfh0B0pHj-28_g0v44Hw", "review_count": 774, "categories": [{"alias": "vegetarian", "title": "Vegetarian"}, {"alias": "vegan", "title": "Vegan"}, {"alias": "cocktailbars", "title": "Cocktail Bars"}], "rating": 4.4, "coordinates": {"latitude": 37.438529, "longitude": -122.158627}, "transactions": ["restaurant_reservation"], "location": {"address1": "855 El Camino Real Building 4 S", "address2": "Bldg 4 South", "address3": null, "city": "Palo Alto", "zip_code": "94301", "country": "US", "state": "CA", "display_address": ["855 El Camino Real Building 4 S", "Bldg 4 South", "Palo Alto, CA 94301"]}, "phone": "+14087810112", "display_phone": "(408) 781-0112", "distance": 1838.6665397298864}, {"id": "1vMgajRAI3lYwuCeGX58oQ", "alias": "evvia-estiatorio-palo-alto", "name": "Evvia Estiatorio", "image_url": "https://s3-media3.fl.yelpcdn.com/bphoto/Z94IuBytiG1nF7L5xnBm9Q/o.jpg", "is_closed": false, "url": "https://www.yelp.com/biz/evvia-estiatorio-palo-alto?adjust_creative=UHCfh0B0pHj-28_g0v44Hw&utm_campaign=yelp_api_v3&utm_medium=api_v3_business_search&utm_source=UHCfh0B0pHj-28_g0v44Hw", "review_count": 2927, "categories": [{"alias": "greek", "title": "Greek"}], "rating": 4.3, "coordinates": {"latitude": 37.445077, "longitude": -122.163778}, "transactions": ["pickup", "delivery"], "price": "$$$", "location": {"address1": "420 Emerson St", "address2": "", "address3": "", "city": "Palo Alto", "zip_code": "94301", "country": "US", "state": "CA", "display_address": ["420 Emerson St", "Palo Alto, CA 94301"]}, "phone": "+16503260983", "display_phone": "(650) 326-0983", "distance": 2117.423597530267}, {"id": "dnbAcJm6GImR6fcVcw_Eig", "alias": "pho-ha-noi-palo-alto-2", "name": "Pho Ha Noi", "image_url": "https://s3-media2.fl.yelpcdn.com/bphoto/AcxW-RiTasUj--Q1kz_kNg/o.jpg", "is_closed": false, "url": "https://www.yelp.com/biz/pho-ha-noi-palo-alto-2?adjust_creative=UHCfh0B0pHj-28_g0v44Hw&utm_campaign=yelp_api_v3&utm_medium=api_v3_business_search&utm_source=UHCfh0B0pHj-28_g0v44Hw", "review_count": 345, "categories": [{"alias": "vietnamese", "title": "Vietnamese"}], "rating": 3.8, "coordinates": {"latitude": 37.444728, "longitude": -122.163159}, "transactions": [], "price": "$$", "location": {"address1": "185 University Ave", "address2": null, "address3": "", "city": "Palo Alto", "zip_code": "94301", "country": "US", "state": "CA", "display_address": ["185 University Ave", "Palo Alto, CA 94301"]}, "phone": "+16505613240", "display_phone": "(650) 561-3240", "distance": 2111.635170458874}, {"id": "Tuq1Ht5QoISVViAlAnyrZg", "alias": "cafe-borrone-menlo-park", "name": "Cafe Borrone", "image_url": "https://s3-media3.fl.yelpcdn.com/bphoto/yVuB0v5CaiK3lKDsdWkLXg/o.jpg", "is_closed": false, "url": "https://www.yelp.com/biz/cafe-borrone-menlo-park?adjust_creative=UHCfh0B0pHj-28_g0v44Hw&utm_campaign=yelp_api_v3&utm_medium=api_v3_business_search&utm_source=UHCfh0B0pHj-28_g0v44Hw", "review_count": 1993, "categories": [{"alias": "breakfast_brunch", "title": "Breakfast & Brunch"}, {"alias": "italian", "title": "Italian"}, {"alias": "cafes", "title": "Cafes"}], "rating": 3.9, "coordinates": {"latitude": 37.453665, "longitude": -122.18202}, "transactions": ["pickup"], "price": "$$", "location": {"address1": "1010 El Camino Real", "address2": "", "address3": "", "city": "Menlo Park", "zip_code": "94025", "country": "US", "state": "CA", "display_address": ["1010 El Camino Real", "Menlo Park, CA 94025"]}, "phone": "+16503270830", "display_phone": "(650) 327-0830", "distance": 2939.1464690820976}, {"id": "lj_i7YQw7MPgLkuseruWdQ", "alias": "telef\u00e8ric-barcelona-palo-alto-palo-alto", "name": "Telef\u00e8ric Barcelona -Palo Alto", "image_url": "https://s3-media2.fl.yelpcdn.com/bphoto/XLjXBDfDCzUqsQ_29S5aKQ/o.jpg", "is_closed": false, "url": "https://www.yelp.com/biz/telef%C3%A8ric-barcelona-palo-alto-palo-alto?adjust_creative=UHCfh0B0pHj-28_g0v44Hw&utm_campaign=yelp_api_v3&utm_medium=api_v3_business_search&utm_source=UHCfh0B0pHj-28_g0v44Hw", "review_count": 1710, "categories": [{"alias": "spanish", "title": "Spanish"}, {"alias": "tapas", "title": "Tapas Bars"}, {"alias": "cocktailbars", "title": "Cocktail Bars"}], "rating": 4.2, "coordinates": {"latitude": 37.4383, "longitude": -122.158361}, "transactions": ["pickup", "delivery"], "price": "$$$", "location": {"address1": "855 El Camino Real", "address2": "Ste 130", "address3": "", "city": "Palo Alto", "zip_code": "94301", "country": "US", "state": "CA", "display_address": ["855 El Camino Real", "Ste 130", "Palo Alto, CA 94301"]}, "phone": "+16503210512", "display_phone": "(650) 321-0512", "distance": 1819.1171719222457}], "total": 1000, "region": {"center": {"longitude": -122.1742904, "latitude": 37.4279248}}}{"businesses": [{"id": "K2dtWI7EAomBHcui4ZoqcA", "alias": "drunken-monk-menlo-park", "name": "Drunken Monk", "image_url": "https://s3-media2.fl.yelpcdn.com/bphoto/lbRKukB38HhVPAfctZFHSA/o.jpg", "is_closed": false, "url": "https://www.yelp.com/biz/drunken-monk-menlo-park?adjust_creative=UHCfh0B0pHj-28_g0v44Hw&utm_campaign=yelp_api_v3&utm_medium=api_v3_business_search&utm_source=UHCfh0B0pHj-28_g0v44Hw", "review_count": 90, "categories": [{"alias": "izakaya", "title": "Izakaya"}, {"alias": "sushi", "title": "Sushi Bars"}], "rating": 4.1, "coordinates": {"latitude": 37.456548, "longitude": -122.188364}, "transactions": ["restaurant_reservation"], "location": {"address1": "1438 El Camino Real", "address2": null, "address3": "", "city": "Menlo Park", "zip_code": "94025", "country": "US", "state": "CA", "display_address": ["1438 El Camino Real", "Menlo Park, CA 94025"]}, "phone": "+16503846668", "display_phone": "(650) 384-6668", "distance": 3414.373912564353}, {"id": "pLqiFFz1JScp8wMMyXcx-w", "alias": "ter\u00fan-palo-alto-3", "name": "Ter\u00fan", "image_url": "https://s3-media4.fl.yelpcdn.com/bphoto/QX2xDWZc94bBzPeXkuh6Aw/o.jpg", "is_closed": false, "url": "https://www.yelp.com/biz/ter%C3%BAn-palo-alto-3?adjust_creative=UHCfh0B0pHj-28_g0v44Hw&utm_campaign=yelp_api_v3&utm_medium=api_v3_business_search&utm_source=UHCfh0B0pHj-28_g0v44Hw", "review_count": 2051, "categories": [{"alias": "pizza", "title": "Pizza"}, {"alias": "italian", "title": "Italian"}, {"alias": "bars", "title": "Bars"}], "rating": 4.1, "coordinates": {"latitude": 37.425993, "longitude": -122.145453}, "transactions": ["pickup", "delivery"], "price": "$$", "location": {"address1": "448 S California Ave", "address2": "", "address3": "", "city": "Palo Alto", "zip_code": "94306", "country": "US", "state": "CA", "display_address": ["448 S California Ave", "Palo Alto, CA 94306"]}, "phone": "+16506008310", "display_phone": "(650) 600-8310", "distance": 2554.590261197895}, {"id": "Eai4a2zjEm0xHKJTN--LpA", "alias": "sand-hill-kitchen-menlo-park-2", "name": "Sand Hill Kitchen", "image_url": "https://s3-media1.fl.yelpcdn.com/bphoto/9SLcHmUkb9toGBW8rx7jVA/o.jpg", "is_closed": false, "url": "https://www.yelp.com/biz/sand-hill-kitchen-menlo-park-2?adjust_creative=UHCfh0B0pHj-28_g0v44Hw&utm_campaign=yelp_api_v3&utm_medium=api_v3_business_search&utm_source=UHCfh0B0pHj-28_g0v44Hw", "review_count": 51, "categories": [{"alias": "newamerican", "title": "New American"}, {"alias": "breakfast_brunch", "title": "Breakfast & Brunch"}], "rating": 4.8, "coordinates": {"latitude": 37.42335, "longitude": -122.20322}, "transactions": [], "location": {"address1": "2400 Sand Hill Rd", "address2": "Ste 203", "address3": "", "city": "Menlo Park", "zip_code": "94025", "country": "US", "state": "CA", "display_address": ["2400 Sand Hill Rd", "Ste 203", "Menlo Park, CA 94025"]}, "phone": "+16503043966", "display_phone": "(650) 304-3966", "distance": 2612.9622976598857}, {"id": "oRsoXNgTAG8p3n-iiR7BLQ", "alias": "sekoya-palo-alto", "name": "Sekoya", "image_url": "https://s3-media4.fl.yelpcdn.com/bphoto/nskrI5HvIh-V4WGUQ9RBaw/o.jpg", "is_closed": false, "url": "https://www.yelp.com/biz/sekoya-palo-alto?adjust_creative=UHCfh0B0pHj-28_g0v44Hw&utm_campaign=yelp_api_v3&utm_medium=api_v3_business_search&utm_source=UHCfh0B0pHj-28_g0v44Hw", "review_count": 67, "categories": [{"alias": "cocktailbars", "title": "Cocktail Bars"}, {"alias": "newamerican", "title": "New American"}, {"alias": "wine_bars", "title": "Wine Bars"}], "rating": 4.3, "coordinates": {"latitude": 37.426179, "longitude": -122.144651}, "transactions": [], "location": {"address1": "417 California Ave", "address2": "", "address3": null, "city": "Palo Alto", "zip_code": "94306", "country": "US", "state": "CA", "display_address": ["417 California Ave", "Palo Alto, CA 94306"]}, "phone": "+16503132413", "display_phone": "(650) 313-2413", "distance": 2625.187687694398}, {"id": "iKJ8LTC61-QsLTLi1Cte1w", "alias": "farmhouse-kitchen-thai-cuisine-menlo-park-2", "name": "Farmhouse Kitchen Thai Cuisine", "image_url": "https://s3-media1.fl.yelpcdn.com/bphoto/uDVC4sftSUOCy5hVLxsYjw/o.jpg", "is_closed": false, "url": "https://www.yelp.com/biz/farmhouse-kitchen-thai-cuisine-menlo-park-2?adjust_creative=UHCfh0B0pHj-28_g0v44Hw&utm_campaign=yelp_api_v3&utm_medium=api_v3_business_search&utm_source=UHCfh0B0pHj-28_g0v44Hw", "review_count": 1214, "categories": [{"alias": "thai", "title": "Thai"}, {"alias": "cocktailbars", "title": "Cocktail Bars"}, {"alias": "noodles", "title": "Noodles"}], "rating": 3.9, "coordinates": {"latitude": 37.45491677842326, "longitude": -122.1834215411082}, "transactions": ["restaurant_reservation"], "price": "$$", "location": {"address1": "1165 Merrill St", "address2": "", "address3": null, "city": "Menlo Park", "zip_code": "94025", "country": "US", "state": "CA", "display_address": ["1165 Merrill St", "Menlo Park, CA 94025"]}, "phone": "+16506657935", "display_phone": "(650) 665-7935", "distance": 3106.0349623626516}, {"id": "NX8VYnWFQ2ZY-H0HwvfPTw", "alias": "wildseed-palo-alto-3", "name": "Wildseed", "image_url": "https://s3-media2.fl.yelpcdn.com/bphoto/JJntGR0jC39l_1oY-EqKRw/o.jpg", "is_closed": false, "url": "https://www.yelp.com/biz/wildseed-palo-alto-3?adjust_creative=UHCfh0B0pHj-28_g0v44Hw&utm_campaign=yelp_api_v3&utm_medium=api_v3_business_search&utm_source=UHCfh0B0pHj-28_g0v44Hw", "review_count": 774, "categories": [{"alias": "vegetarian", "title": "Vegetarian"}, {"alias": "vegan", "title": "Vegan"}, {"alias": "cocktailbars", "title": "Cocktail Bars"}], "rating": 4.4, "coordinates": {"latitude": 37.438529, "longitude": -122.158627}, "transactions": ["restaurant_reservation"], "location": {"address1": "855 El Camino Real Building 4 S", "address2": "Bldg 4 South", "address3": null, "city": "Palo Alto", "zip_code": "94301", "country": "US", "state": "CA", "display_address": ["855 El Camino Real Building 4 S", "Bldg 4 South", "Palo Alto, CA 94301"]}, "phone": "+14087810112", "display_phone": "(408) 781-0112", "distance": 1836.5024204137744}, {"id": "1vMgajRAI3lYwuCeGX58oQ", "alias": "evvia-estiatorio-palo-alto", "name": "Evvia Estiatorio", "image_url": "https://s3-media3.fl.yelpcdn.com/bphoto/Z94IuBytiG1nF7L5xnBm9Q/o.jpg", "is_closed": false, "url": "https://www.yelp.com/biz/evvia-estiatorio-palo-alto?adjust_creative=UHCfh0B0pHj-28_g0v44Hw&utm_campaign=yelp_api_v3&utm_medium=api_v3_business_search&utm_source=UHCfh0B0pHj-28_g0v44Hw", "review_count": 2927, "categories": [{"alias": "greek", "title": "Greek"}], "rating": 4.3, "coordinates": {"latitude": 37.445077, "longitude": -122.163778}, "transactions": ["pickup", "delivery"], "price": "$$$", "location": {"address1": "420 Emerson St", "address2": "", "address3": "", "city": "Palo Alto", "zip_code": "94301", "country": "US", "state": "CA", "display_address": ["420 Emerson St", "Palo Alto, CA 94301"]}, "phone": "+16503260983", "display_phone": "(650) 326-0983", "distance": 2115.110306740901}, {"id": "dnbAcJm6GImR6fcVcw_Eig", "alias": "pho-ha-noi-palo-alto-2", "name": "Pho Ha Noi", "image_url": "https://s3-media2.fl.yelpcdn.com/bphoto/AcxW-RiTasUj--Q1kz_kNg/o.jpg", "is_closed": false, "url": "https://www.yelp.com/biz/pho-ha-noi-palo-alto-2?adjust_creative=UHCfh0B0pHj-28_g0v44Hw&utm_campaign=yelp_api_v3&utm_medium=api_v3_business_search&utm_source=UHCfh0B0pHj-28_g0v44Hw", "review_count": 345, "categories": [{"alias": "vietnamese", "title": "Vietnamese"}], "rating": 3.8, "coordinates": {"latitude": 37.444728, "longitude": -122.163159}, "transactions": [], "price": "$$", "location": {"address1": "185 University Ave", "address2": null, "address3": "", "city": "Palo Alto", "zip_code": "94301", "country": "US", "state": "CA", "display_address": ["185 University Ave", "Palo Alto, CA 94301"]}, "phone": "+16505613240", "display_phone": "(650) 561-3240", "distance": 2109.3212959859575}, {"id": "Tuq1Ht5QoISVViAlAnyrZg", "alias": "cafe-borrone-menlo-park", "name": "Cafe Borrone", "image_url": "https://s3-media3.fl.yelpcdn.com/bphoto/yVuB0v5CaiK3lKDsdWkLXg/o.jpg", "is_closed": false, "url": "https://www.yelp.com/biz/cafe-borrone-menlo-park?adjust_creative=UHCfh0B0pHj-28_g0v44Hw&utm_campaign=yelp_api_v3&utm_medium=api_v3_business_search&utm_source=UHCfh0B0pHj-28_g0v44Hw", "review_count": 1993, "categories": [{"alias": "breakfast_brunch", "title": "Breakfast & Brunch"}, {"alias": "italian", "title": "Italian"}, {"alias": "cafes", "title": "Cafes"}], "rating": 3.9, "coordinates": {"latitude": 37.453665, "longitude": -122.18202}, "transactions": ["pickup"], "price": "$$", "location": {"address1": "1010 El Camino Real", "address2": "", "address3": "", "city": "Menlo Park", "zip_code": "94025", "country": "US", "state": "CA", "display_address": ["1010 El Camino Real", "Menlo Park, CA 94025"]}, "phone": "+16503270830", "display_phone": "(650) 327-0830", "distance": 2937.3886440959786}, {"id": "lj_i7YQw7MPgLkuseruWdQ", "alias": "telef\u00e8ric-barcelona-palo-alto-palo-alto", "name": "Telef\u00e8ric Barcelona -Palo Alto", "image_url": "https://s3-media2.fl.yelpcdn.com/bphoto/XLjXBDfDCzUqsQ_29S5aKQ/o.jpg", "is_closed": false, "url": "https://www.yelp.com/biz/telef%C3%A8ric-barcelona-palo-alto-palo-alto?adjust_creative=UHCfh0B0pHj-28_g0v44Hw&utm_campaign=yelp_api_v3&utm_medium=api_v3_business_search&utm_source=UHCfh0B0pHj-28_g0v44Hw", "review_count": 1710, "categories": [{"alias": "spanish", "title": "Spanish"}, {"alias": "tapas", "title": "Tapas Bars"}, {"alias": "cocktailbars", "title": "Cocktail Bars"}], "rating": 4.2, "coordinates": {"latitude": 37.4383, "longitude": -122.158361}, "transactions": ["pickup", "delivery"], "price": "$$$", "location": {"address1": "855 El Camino Real", "address2": "Ste 130", "address3": "", "city": "Palo Alto", "zip_code": "94301", "country": "US", "state": "CA", "display_address": ["855 El Camino Real", "Ste 130", "Palo Alto, CA 94301"]}, "phone": "+16503210512", "display_phone": "(650) 321-0512", "distance": 1816.9934545045267}], "total": 1000, "region": {"center": {"longitude": -122.1742784, "latitude": 37.4279433}}}{"businesses": [{"id": "K2dtWI7EAomBHcui4ZoqcA", "alias": "drunken-monk-menlo-park", "name": "Drunken Monk", "image_url": "https://s3-media2.fl.yelpcdn.com/bphoto/lbRKukB38HhVPAfctZFHSA/o.jpg", "is_closed": false, "url": "https://www.yelp.com/biz/drunken-monk-menlo-park?adjust_creative=UHCfh0B0pHj-28_g0v44Hw&utm_campaign=yelp_api_v3&utm_medium=api_v3_business_search&utm_source=UHCfh0B0pHj-28_g0v44Hw", "review_count": 90, "categories": [{"alias": "izakaya", "title": "Izakaya"}, {"alias": "sushi", "title": "Sushi Bars"}], "rating": 4.1, "coordinates": {"latitude": 37.456548, "longitude": -122.188364}, "transactions": ["restaurant_reservation"], "location": {"address1": "1438 El Camino Real", "address2": null, "address3": "", "city": "Menlo Park", "zip_code": "94025", "country": "US", "state": "CA", "display_address": ["1438 El Camino Real", "Menlo Park, CA 94025"]}, "phone": "+16503846668", "display_phone": "(650) 384-6668", "distance": 3416.483209390208}, {"id": "pLqiFFz1JScp8wMMyXcx-w", "alias": "ter\u00fan-palo-alto-3", "name": "Ter\u00fan", "image_url": "https://s3-media4.fl.yelpcdn.com/bphoto/QX2xDWZc94bBzPeXkuh6Aw/o.jpg", "is_closed": false, "url": "https://www.yelp.com/biz/ter%C3%BAn-palo-alto-3?adjust_creative=UHCfh0B0pHj-28_g0v44Hw&utm_campaign=yelp_api_v3&utm_medium=api_v3_business_search&utm_source=UHCfh0B0pHj-28_g0v44Hw", "review_count": 2051, "categories": [{"alias": "pizza", "title": "Pizza"}, {"alias": "italian", "title": "Italian"}, {"alias": "bars", "title": "Bars"}], "rating": 4.1, "coordinates": {"latitude": 37.425993, "longitude": -122.145453}, "transactions": ["pickup", "delivery"], "price": "$$", "location": {"address1": "448 S California Ave", "address2": "", "address3": "", "city": "Palo Alto", "zip_code": "94306", "country": "US", "state": "CA", "display_address": ["448 S California Ave", "Palo Alto, CA 94306"]}, "phone": "+16506008310", "display_phone": "(650) 600-8310", "distance": 2554.4078399099512}, {"id": "Eai4a2zjEm0xHKJTN--LpA", "alias": "sand-hill-kitchen-menlo-park-2", "name": "Sand Hill Kitchen", "image_url": "https://s3-media1.fl.yelpcdn.com/bphoto/9SLcHmUkb9toGBW8rx7jVA/o.jpg", "is_closed": false, "url": "https://www.yelp.com/biz/sand-hill-kitchen-menlo-park-2?adjust_creative=UHCfh0B0pHj-28_g0v44Hw&utm_campaign=yelp_api_v3&utm_medium=api_v3_business_search&utm_source=UHCfh0B0pHj-28_g0v44Hw", "review_count": 51, "categories": [{"alias": "newamerican", "title": "New American"}, {"alias": "breakfast_brunch", "title": "Breakfast & Brunch"}], "rating": 4.8, "coordinates": {"latitude": 37.42335, "longitude": -122.20322}, "transactions": [], "location": {"address1": "2400 Sand Hill Rd", "address2": "Ste 203", "address3": "", "city": "Menlo Park", "zip_code": "94025", "country": "US", "state": "CA", "display_address": ["2400 Sand Hill Rd", "Ste 203", "Menlo Park, CA 94025"]}, "phone": "+16503043966", "display_phone": "(650) 304-3966", "distance": 2612.509822987896}, {"id": "oRsoXNgTAG8p3n-iiR7BLQ", "alias": "sekoya-palo-alto", "name": "Sekoya", "image_url": "https://s3-media4.fl.yelpcdn.com/bphoto/nskrI5HvIh-V4WGUQ9RBaw/o.jpg", "is_closed": false, "url": "https://www.yelp.com/biz/sekoya-palo-alto?adjust_creative=UHCfh0B0pHj-28_g0v44Hw&utm_campaign=yelp_api_v3&utm_medium=api_v3_business_search&utm_source=UHCfh0B0pHj-28_g0v44Hw", "review_count": 67, "categories": [{"alias": "cocktailbars", "title": "Cocktail Bars"}, {"alias": "newamerican", "title": "New American"}, {"alias": "wine_bars", "title": "Wine Bars"}], "rating": 4.3, "coordinates": {"latitude": 37.426179, "longitude": -122.144651}, "transactions": [], "location": {"address1": "417 California Ave", "address2": "", "address3": null, "city": "Palo Alto", "zip_code": "94306", "country": "US", "state": "CA", "display_address": ["417 California Ave", "Palo Alto, CA 94306"]}, "phone": "+16503132413", "display_phone": "(650) 313-2413", "distance": 2625.0269623201507}, {"id": "iKJ8LTC61-QsLTLi1Cte1w", "alias": "farmhouse-kitchen-thai-cuisine-menlo-park-2", "name": "Farmhouse Kitchen Thai Cuisine", "image_url": "https://s3-media1.fl.yelpcdn.com/bphoto/uDVC4sftSUOCy5hVLxsYjw/o.jpg", "is_closed": false, "url": "https://www.yelp.com/biz/farmhouse-kitchen-thai-cuisine-menlo-park-2?adjust_creative=UHCfh0B0pHj-28_g0v44Hw&utm_campaign=yelp_api_v3&utm_medium=api_v3_business_search&utm_source=UHCfh0B0pHj-28_g0v44Hw", "review_count": 1214, "categories": [{"alias": "thai", "title": "Thai"}, {"alias": "cocktailbars", "title": "Cocktail Bars"}, {"alias": "noodles", "title": "Noodles"}], "rating": 3.9, "coordinates": {"latitude": 37.45491677842326, "longitude": -122.1834215411082}, "transactions": ["restaurant_reservation"], "price": "$$", "location": {"address1": "1165 Merrill St", "address2": "", "address3": null, "city": "Menlo Park", "zip_code": "94025", "country": "US", "state": "CA", "display_address": ["1165 Merrill St", "Menlo Park, CA 94025"]}, "phone": "+16506657935", "display_phone": "(650) 665-7935", "distance": 3108.2231859947265}, {"id": "NX8VYnWFQ2ZY-H0HwvfPTw", "alias": "wildseed-palo-alto-3", "name": "Wildseed", "image_url": "https://s3-media2.fl.yelpcdn.com/bphoto/JJntGR0jC39l_1oY-EqKRw/o.jpg", "is_closed": false, "url": "https://www.yelp.com/biz/wildseed-palo-alto-3?adjust_creative=UHCfh0B0pHj-28_g0v44Hw&utm_campaign=yelp_api_v3&utm_medium=api_v3_business_search&utm_source=UHCfh0B0pHj-28_g0v44Hw", "review_count": 774, "categories": [{"alias": "vegetarian", "title": "Vegetarian"}, {"alias": "vegan", "title": "Vegan"}, {"alias": "cocktailbars", "title": "Cocktail Bars"}], "rating": 4.4, "coordinates": {"latitude": 37.438529, "longitude": -122.158627}, "transactions": ["restaurant_reservation"], "location": {"address1": "855 El Camino Real Building 4 S", "address2": "Bldg 4 South", "address3": null, "city": "Palo Alto", "zip_code": "94301", "country": "US", "state": "CA", "display_address": ["855 El Camino Real Building 4 S", "Bldg 4 South", "Palo Alto, CA 94301"]}, "phone": "+14087810112", "display_phone": "(408) 781-0112", "distance": 1838.0276146915526}, {"id": "1vMgajRAI3lYwuCeGX58oQ", "alias": "evvia-estiatorio-palo-alto", "name": "Evvia Estiatorio", "image_url": "https://s3-media3.fl.yelpcdn.com/bphoto/Z94IuBytiG1nF7L5xnBm9Q/o.jpg", "is_closed": false, "url": "https://www.yelp.com/biz/evvia-estiatorio-palo-alto?adjust_creative=UHCfh0B0pHj-28_g0v44Hw&utm_campaign=yelp_api_v3&utm_medium=api_v3_business_search&utm_source=UHCfh0B0pHj-28_g0v44Hw", "review_count": 2927, "categories": [{"alias": "greek", "title": "Greek"}], "rating": 4.3, "coordinates": {"latitude": 37.445077, "longitude": -122.163778}, "transactions": ["pickup", "delivery"], "price": "$$$", "location": {"address1": "420 Emerson St", "address2": "", "address3": "", "city": "Palo Alto", "zip_code": "94301", "country": "US", "state": "CA", "display_address": ["420 Emerson St", "Palo Alto, CA 94301"]}, "phone": "+16503260983", "display_phone": "(650) 326-0983", "distance": 2117.1556076743022}, {"id": "dnbAcJm6GImR6fcVcw_Eig", "alias": "pho-ha-noi-palo-alto-2", "name": "Pho Ha Noi", "image_url": "https://s3-media2.fl.yelpcdn.com/bphoto/AcxW-RiTasUj--Q1kz_kNg/o.jpg", "is_closed": false, "url": "https://www.yelp.com/biz/pho-ha-noi-palo-alto-2?adjust_creative=UHCfh0B0pHj-28_g0v44Hw&utm_campaign=yelp_api_v3&utm_medium=api_v3_business_search&utm_source=UHCfh0B0pHj-28_g0v44Hw", "review_count": 345, "categories": [{"alias": "vietnamese", "title": "Vietnamese"}], "rating": 3.8, "coordinates": {"latitude": 37.444728, "longitude": -122.163159}, "transactions": [], "price": "$$", "location": {"address1": "185 University Ave", "address2": null, "address3": "", "city": "Palo Alto", "zip_code": "94301", "country": "US", "state": "CA", "display_address": ["185 University Ave", "Palo Alto, CA 94301"]}, "phone": "+16505613240", "display_phone": "(650) 561-3240", "distance": 2111.3325172142554}, {"id": "Tuq1Ht5QoISVViAlAnyrZg", "alias": "cafe-borrone-menlo-park", "name": "Cafe Borrone", "image_url": "https://s3-media3.fl.yelpcdn.com/bphoto/yVuB0v5CaiK3lKDsdWkLXg/o.jpg", "is_closed": false, "url": "https://www.yelp.com/biz/cafe-borrone-menlo-park?adjust_creative=UHCfh0B0pHj-28_g0v44Hw&utm_campaign=yelp_api_v3&utm_medium=api_v3_business_search&utm_source=UHCfh0B0pHj-28_g0v44Hw", "review_count": 1993, "categories": [{"alias": "breakfast_brunch", "title": "Breakfast & Brunch"}, {"alias": "italian", "title": "Italian"}, {"alias": "cafes", "title": "Cafes"}], "rating": 3.9, "coordinates": {"latitude": 37.453665, "longitude": -122.18202}, "transactions": ["pickup"], "price": "$$", "location": {"address1": "1010 El Camino Real", "address2": "", "address3": "", "city": "Menlo Park", "zip_code": "94025", "country": "US", "state": "CA", "display_address": ["1010 El Camino Real", "Menlo Park, CA 94025"]}, "phone": "+16503270830", "display_phone": "(650) 327-0830", "distance": 2939.5939387334397}, {"id": "lj_i7YQw7MPgLkuseruWdQ", "alias": "telef\u00e8ric-barcelona-palo-alto-palo-alto", "name": "Telef\u00e8ric Barcelona -Palo Alto", "image_url": "https://s3-media2.fl.yelpcdn.com/bphoto/XLjXBDfDCzUqsQ_29S5aKQ/o.jpg", "is_closed": false, "url": "https://www.yelp.com/biz/telef%C3%A8ric-barcelona-palo-alto-palo-alto?adjust_creative=UHCfh0B0pHj-28_g0v44Hw&utm_campaign=yelp_api_v3&utm_medium=api_v3_business_search&utm_source=UHCfh0B0pHj-28_g0v44Hw", "review_count": 1710, "categories": [{"alias": "spanish", "title": "Spanish"}, {"alias": "tapas", "title": "Tapas Bars"}, {"alias": "cocktailbars", "title": "Cocktail Bars"}], "rating": 4.2, "coordinates": {"latitude": 37.4383, "longitude": -122.158361}, "transactions": ["pickup", "delivery"], "price": "$$$", "location": {"address1": "855 El Camino Real", "address2": "Ste 130", "address3": "", "city": "Palo Alto", "zip_code": "94301", "country": "US", "state": "CA", "display_address": ["855 El Camino Real", "Ste 130", "Palo Alto, CA 94301"]}, "phone": "+16503210512", "display_phone": "(650) 321-0512", "distance": 1818.4389696432215}], "total": 1000, "region": {"center": {"longitude": -122.1742785, "latitude": 37.4279229}}}{"businesses": [{"id": "K2dtWI7EAomBHcui4ZoqcA", "alias": "drunken-monk-menlo-park", "name": "Drunken Monk", "image_url": "https://s3-media2.fl.yelpcdn.com/bphoto/lbRKukB38HhVPAfctZFHSA/o.jpg", "is_closed": false, "url": "https://www.yelp.com/biz/drunken-monk-menlo-park?adjust_creative=UHCfh0B0pHj-28_g0v44Hw&utm_campaign=yelp_api_v3&utm_medium=api_v3_business_search&utm_source=UHCfh0B0pHj-28_g0v44Hw", "review_count": 90, "categories": [{"alias": "izakaya", "title": "Izakaya"}, {"alias": "sushi", "title": "Sushi Bars"}], "rating": 4.1, "coordinates": {"latitude": 37.456548, "longitude": -122.188364}, "transactions": ["restaurant_reservation"], "location": {"address1": "1438 El Camino Real", "address2": null, "address3": "", "city": "Menlo Park", "zip_code": "94025", "country": "US", "state": "CA", "display_address": ["1438 El Camino Real", "Menlo Park, CA 94025"]}, "phone": "+16503846668", "display_phone": "(650) 384-6668", "distance": 3415.0382787930603}, {"id": "pLqiFFz1JScp8wMMyXcx-w", "alias": "ter\u00fan-palo-alto-3", "name": "Ter\u00fan", "image_url": "https://s3-media4.fl.yelpcdn.com/bphoto/QX2xDWZc94bBzPeXkuh6Aw/o.jpg", "is_closed": false, "url": "https://www.yelp.com/biz/ter%C3%BAn-palo-alto-3?adjust_creative=UHCfh0B0pHj-28_g0v44Hw&utm_campaign=yelp_api_v3&utm_medium=api_v3_business_search&utm_source=UHCfh0B0pHj-28_g0v44Hw", "review_count": 2051, "categories": [{"alias": "pizza", "title": "Pizza"}, {"alias": "italian", "title": "Italian"}, {"alias": "bars", "title": "Bars"}], "rating": 4.1, "coordinates": {"latitude": 37.425993, "longitude": -122.145453}, "transactions": ["pickup", "delivery"], "price": "$$", "location": {"address1": "448 S California Ave", "address2": "", "address3": "", "city": "Palo Alto", "zip_code": "94306", "country": "US", "state": "CA", "display_address": ["448 S California Ave", "Palo Alto, CA 94306"]}, "phone": "+16506008310", "display_phone": "(650) 600-8310", "distance": 2556.1974290232383}, {"id": "Eai4a2zjEm0xHKJTN--LpA", "alias": "sand-hill-kitchen-menlo-park-2", "name": "Sand Hill Kitchen", "image_url": "https://s3-media1.fl.yelpcdn.com/bphoto/9SLcHmUkb9toGBW8rx7jVA/o.jpg", "is_closed": false, "url": "https://www.yelp.com/biz/sand-hill-kitchen-menlo-park-2?adjust_creative=UHCfh0B0pHj-28_g0v44Hw&utm_campaign=yelp_api_v3&utm_medium=api_v3_business_search&utm_source=UHCfh0B0pHj-28_g0v44Hw", "review_count": 51, "categories": [{"alias": "newamerican", "title": "New American"}, {"alias": "breakfast_brunch", "title": "Breakfast & Brunch"}], "rating": 4.8, "coordinates": {"latitude": 37.42335, "longitude": -122.20322}, "transactions": [], "location": {"address1": "2400 Sand Hill Rd", "address2": "Ste 203", "address3": "", "city": "Menlo Park", "zip_code": "94025", "country": "US", "state": "CA", "display_address": ["2400 Sand Hill Rd", "Ste 203", "Menlo Park, CA 94025"]}, "phone": "+16503043966", "display_phone": "(650) 304-3966", "distance": 2610.992850437178}, {"id": "oRsoXNgTAG8p3n-iiR7BLQ", "alias": "sekoya-palo-alto", "name": "Sekoya", "image_url": "https://s3-media4.fl.yelpcdn.com/bphoto/nskrI5HvIh-V4WGUQ9RBaw/o.jpg", "is_closed": false, "url": "https://www.yelp.com/biz/sekoya-palo-alto?adjust_creative=UHCfh0B0pHj-28_g0v44Hw&utm_campaign=yelp_api_v3&utm_medium=api_v3_business_search&utm_source=UHCfh0B0pHj-28_g0v44Hw", "review_count": 67, "categories": [{"alias": "cocktailbars", "title": "Cocktail Bars"}, {"alias": "newamerican", "title": "New American"}, {"alias": "wine_bars", "title": "Wine Bars"}], "rating": 4.3, "coordinates": {"latitude": 37.426179, "longitude": -122.144651}, "transactions": [], "location": {"address1": "417 California Ave", "address2": "", "address3": null, "city": "Palo Alto", "zip_code": "94306", "country": "US", "state": "CA", "display_address": ["417 California Ave", "Palo Alto, CA 94306"]}, "phone": "+16503132413", "display_phone": "(650) 313-2413", "distance": 2626.8094686302}, {"id": "iKJ8LTC61-QsLTLi1Cte1w", "alias": "farmhouse-kitchen-thai-cuisine-menlo-park-2", "name": "Farmhouse Kitchen Thai Cuisine", "image_url": "https://s3-media1.fl.yelpcdn.com/bphoto/uDVC4sftSUOCy5hVLxsYjw/o.jpg", "is_closed": false, "url": "https://www.yelp.com/biz/farmhouse-kitchen-thai-cuisine-menlo-park-2?adjust_creative=UHCfh0B0pHj-28_g0v44Hw&utm_campaign=yelp_api_v3&utm_medium=api_v3_business_search&utm_source=UHCfh0B0pHj-28_g0v44Hw", "review_count": 1214, "categories": [{"alias": "thai", "title": "Thai"}, {"alias": "cocktailbars", "title": "Cocktail Bars"}, {"alias": "noodles", "title": "Noodles"}], "rating": 3.9, "coordinates": {"latitude": 37.45491677842326, "longitude": -122.1834215411082}, "transactions": ["restaurant_reservation"], "price": "$$", "location": {"address1": "1165 Merrill St", "address2": "", "address3": null, "city": "Menlo Park", "zip_code": "94025", "country": "US", "state": "CA", "display_address": ["1165 Merrill St", "Menlo Park, CA 94025"]}, "phone": "+16506657935", "display_phone": "(650) 665-7935", "distance": 3106.9281155254207}, {"id": "NX8VYnWFQ2ZY-H0HwvfPTw", "alias": "wildseed-palo-alto-3", "name": "Wildseed", "image_url": "https://s3-media2.fl.yelpcdn.com/bphoto/JJntGR0jC39l_1oY-EqKRw/o.jpg", "is_closed": false, "url": "https://www.yelp.com/biz/wildseed-palo-alto-3?adjust_creative=UHCfh0B0pHj-28_g0v44Hw&utm_campaign=yelp_api_v3&utm_medium=api_v3_business_search&utm_source=UHCfh0B0pHj-28_g0v44Hw", "review_count": 774, "categories": [{"alias": "vegetarian", "title": "Vegetarian"}, {"alias": "vegan", "title": "Vegan"}, {"alias": "cocktailbars", "title": "Cocktail Bars"}], "rating": 4.4, "coordinates": {"latitude": 37.438529, "longitude": -122.158627}, "transactions": ["restaurant_reservation"], "location": {"address1": "855 El Camino Real Building 4 S", "address2": "Bldg 4 South", "address3": null, "city": "Palo Alto", "zip_code": "94301", "country": "US", "state": "CA", "display_address": ["855 El Camino Real Building 4 S", "Bldg 4 South", "Palo Alto, CA 94301"]}, "phone": "+14087810112", "display_phone": "(408) 781-0112", "distance": 1838.7186434308342}, {"id": "1vMgajRAI3lYwuCeGX58oQ", "alias": "evvia-estiatorio-palo-alto", "name": "Evvia Estiatorio", "image_url": "https://s3-media3.fl.yelpcdn.com/bphoto/Z94IuBytiG1nF7L5xnBm9Q/o.jpg", "is_closed": false, "url": "https://www.yelp.com/biz/evvia-estiatorio-palo-alto?adjust_creative=UHCfh0B0pHj-28_g0v44Hw&utm_campaign=yelp_api_v3&utm_medium=api_v3_business_search&utm_source=UHCfh0B0pHj-28_g0v44Hw", "review_count": 2927, "categories": [{"alias": "greek", "title": "Greek"}], "rating": 4.3, "coordinates": {"latitude": 37.445077, "longitude": -122.163778}, "transactions": ["pickup", "delivery"], "price": "$$$", "location": {"address1": "420 Emerson St", "address2": "", "address3": "", "city": "Palo Alto", "zip_code": "94301", "country": "US", "state": "CA", "display_address": ["420 Emerson St", "Palo Alto, CA 94301"]}, "phone": "+16503260983", "display_phone": "(650) 326-0983", "distance": 2117.1161661489136}, {"id": "dnbAcJm6GImR6fcVcw_Eig", "alias": "pho-ha-noi-palo-alto-2", "name": "Pho Ha Noi", "image_url": "https://s3-media2.fl.yelpcdn.com/bphoto/AcxW-RiTasUj--Q1kz_kNg/o.jpg", "is_closed": false, "url": "https://www.yelp.com/biz/pho-ha-noi-palo-alto-2?adjust_creative=UHCfh0B0pHj-28_g0v44Hw&utm_campaign=yelp_api_v3&utm_medium=api_v3_business_search&utm_source=UHCfh0B0pHj-28_g0v44Hw", "review_count": 345, "categories": [{"alias": "vietnamese", "title": "Vietnamese"}], "rating": 3.8, "coordinates": {"latitude": 37.444728, "longitude": -122.163159}, "transactions": [], "price": "$$", "location": {"address1": "185 University Ave", "address2": null, "address3": "", "city": "Palo Alto", "zip_code": "94301", "country": "US", "state": "CA", "display_address": ["185 University Ave", "Palo Alto, CA 94301"]}, "phone": "+16505613240", "display_phone": "(650) 561-3240", "distance": 2111.3579367291536}, {"id": "Tuq1Ht5QoISVViAlAnyrZg", "alias": "cafe-borrone-menlo-park", "name": "Cafe Borrone", "image_url": "https://s3-media3.fl.yelpcdn.com/bphoto/yVuB0v5CaiK3lKDsdWkLXg/o.jpg", "is_closed": false, "url": "https://www.yelp.com/biz/cafe-borrone-menlo-park?adjust_creative=UHCfh0B0pHj-28_g0v44Hw&utm_campaign=yelp_api_v3&utm_medium=api_v3_business_search&utm_source=UHCfh0B0pHj-28_g0v44Hw", "review_count": 1993, "categories": [{"alias": "breakfast_brunch", "title": "Breakfast & Brunch"}, {"alias": "italian", "title": "Italian"}, {"alias": "cafes", "title": "Cafes"}], "rating": 3.9, "coordinates": {"latitude": 37.453665, "longitude": -122.18202}, "transactions": ["pickup"], "price": "$$", "location": {"address1": "1010 El Camino Real", "address2": "", "address3": "", "city": "Menlo Park", "zip_code": "94025", "country": "US", "state": "CA", "display_address": ["1010 El Camino Real", "Menlo Park, CA 94025"]}, "phone": "+16503270830", "display_phone": "(650) 327-0830", "distance": 2938.3428671738393}, {"id": "lj_i7YQw7MPgLkuseruWdQ", "alias": "telef\u00e8ric-barcelona-palo-alto-palo-alto", "name": "Telef\u00e8ric Barcelona -Palo Alto", "image_url": "https://s3-media2.fl.yelpcdn.com/bphoto/XLjXBDfDCzUqsQ_29S5aKQ/o.jpg", "is_closed": false, "url": "https://www.yelp.com/biz/telef%C3%A8ric-barcelona-palo-alto-palo-alto?adjust_creative=UHCfh0B0pHj-28_g0v44Hw&utm_campaign=yelp_api_v3&utm_medium=api_v3_business_search&utm_source=UHCfh0B0pHj-28_g0v44Hw", "review_count": 1710, "categories": [{"alias": "spanish", "title": "Spanish"}, {"alias": "tapas", "title": "Tapas Bars"}, {"alias": "cocktailbars", "title": "Cocktail Bars"}], "rating": 4.2, "coordinates": {"latitude": 37.4383, "longitude": -122.158361}, "transactions": ["pickup", "delivery"], "price": "$$$", "location": {"address1": "855 El Camino Real", "address2": "Ste 130", "address3": "", "city": "Palo Alto", "zip_code": "94301", "country": "US", "state": "CA", "display_address": ["855 El Camino Real", "Ste 130", "Palo Alto, CA 94301"]}, "phone": "+16503210512", "display_phone": "(650) 321-0512", "distance": 1819.213097179013}], "total": 1000, "region": {"center": {"longitude": -122.174298, "latitude": 37.4279308}}}